{
  "landfills": [
    {
      "id": "LF001",
      "company": "MILESTONE",
      "site_name": "UPTON",
      "county": "GLASSCOCK",
      "latitude": 31.499316,
      "longitude": -101.931524,
      "accepts_tph": true,
      "tph_max_mgkg": 5000,
      "accepts_chloride": true,
      "chloride_max_mgkg": 10000,
      "disposal_cost_cy": 25,
      "backfill_available": true,
      "backfill_cost_cy": 10
    },
    {
      "id": "LF002",
      "company": "MILESTONE",
      "site_name": "STANTON LANDFILL",
      "county": "HOWARD",
      "latitude": 31.981708,
      "longitude": -101.771822,
      "accepts_tph": true,
      "tph_max_mgkg": 5000,
      "accepts_chloride": true,
      "chloride_max_mgkg": 10000,
      "disposal_cost_cy": 25,
      "backfill_available": false,
      "backfill_cost_cy": 0
    },
    {
      "id": "LF003",
      "company": "R360",
      "site_name": "WISHBONE",
      "county": "HOWARD",
      "latitude": 32.201328,
      "longitude": -101.737306,
      "accepts_tph": true,
      "tph_max_mgkg": 5000,
      "accepts_chloride": true,
      "chloride_max_mgkg": 10000,
      "disposal_cost_cy": 25,
      "backfill_available": true,
      "backfill_cost_cy": 10
    },
    {
      "id": "LF004",
      "company": "REPUBLIC",
      "site_name": "SOUTH ODESSA",
      "county": "MIDLAND",
      "latitude": 31.77227,
      "longitude": -102.542218,
      "accepts_tph": true,
      "tph_max_mgkg": 5000,
      "accepts_chloride": true,
      "chloride_max_mgkg": 10000,
      "disposal_cost_cy": 25,
      "backfill_available": false,
      "backfill_cost_cy": 0
    },
    {
      "id": "LF005",
      "company": "US ECOLOGY",
      "site_name": "REAGAN",
      "county": "GLASSCOCK",
      "latitude": 31.418575,
      "longitude": -101.691314,
      "accepts_tph": true,
      "tph_max_mgkg": 5000,
      "accepts_chloride": true,
      "chloride_max_mgkg": 10000,
      "disposal_cost_cy": 25,
      "backfill_available": true,
      "backfill_cost_cy": 10
    },
    {
      "id": "LF006",
      "company": "WM",
      "site_name": "BIG LAKE",
      "county": "GLASSCOCK",
      "latitude": 31.344978,
      "longitude": -101.502558,
      "accepts_tph": true,
      "tph_max_mgkg": 5000,
      "accepts_chloride": true,
      "chloride_max_mgkg": 10000,
      "disposal_cost_cy": 25,
      "backfill_available": false,
      "backfill_cost_cy": 0
    },
    {
      "id": "LF007",
      "company": "WM",
      "site_name": "HOWARD",
      "county": "HOWARD",
      "latitude": 32.175082,
      "longitude": -101.665695,
      "accepts_tph": true,
      "tph_max_mgkg": 5000,
      "accepts_chloride": true,
      "chloride_max_mgkg": 10000,
      "disposal_cost_cy": 25,
      "backfill_available": false,
      "backfill_cost_cy": 0
    },
    {
      "id": "LF008",
      "company": "MILESTONE",
      "site_name": "ORLA EWF",
      "county": "LOVING",
      "latitude": 31.865379,
      "longitude": -103.847547,
      "accepts_tph": true,
      "tph_max_mgkg": 5000,
      "accepts_chloride": true,
      "chloride_max_mgkg": 10000,
      "disposal_cost_cy": 25,
      "backfill_available": true,
      "backfill_cost_cy": 10
    },
    {
      "id": "LF009",
      "company": "R360",
      "site_name": "RED BLUFF",
      "county": "CULBERSON",
      "latitude": 31.9861,
      "longitude": -104.021569,
      "accepts_tph": true,
      "tph_max_mgkg": 5000,
      "accepts_chloride": true,
      "chloride_max_mgkg": 10000,
      "disposal_cost_cy": 25,
      "backfill_available": false,
      "backfill_cost_cy": 0
    },
    {
      "id": "LF010",
      "company": "WM",
      "site_name": "ORLA LANDFILL",
      "county": "LOVING",
      "latitude": 31.824627,
      "longitude": -103.910185,
      "accepts_tph": true,
      "tph_max_mgkg": 5000,
      "accepts_chloride": true,
      "chloride_max_mgkg": 10000,
      "disposal_cost_cy": 25,
      "backfill_available": false,
      "backfill_cost_cy": 0
    },
    {
      "id": "LF011",
      "company": "WM",
      "site_name": "DEEP SIX",
      "county": "REEVES",
      "latitude": 31.286899,
      "longitude": -103.392814,
      "accepts_tph": true,
      "tph_max_mgkg": 5000,
      "accepts_chloride": true,
      "chloride_max_mgkg": 10000,
      "disposal_cost_cy": 25,
      "backfill_available": false,
      "backfill_cost_cy": 0
    },
    {
      "id": "LF012",
      "company": "REPUBLIC",
      "site_name": "REEVES",
      "county": "REEVES",
      "latitude": 31.654254,
      "longitude": -103.637612,
      "accepts_tph": true,
      "tph_max_mgkg": 5000,
      "accepts_chloride": true,
      "chloride_max_mgkg": 10000,
      "disposal_cost_cy": 25,
      "backfill_available": true,
      "backfill_cost_cy": 10
    },
    {
      "id": "LF013",
      "company": "DESERT ENVIRONMENTAL",
      "site_name": "DRF MENTONE",
      "county": "LOVING",
      "latitude": 31.960808,
      "longitude": -103.75866,
      "accepts_tph": true,
      "tph_max_mgkg": 5000,
      "accepts_chloride": true,
      "chloride_max_mgkg": 10000,
      "disposal_cost_cy": 25,
      "backfill_available": true,
      "backfill_cost_cy": 10
    },
    {
      "id": "LF014",
      "company": "US ECOLOGY",
      "site_name": "PECOS",
      "county": "REEVES",
      "latitude": 31.320076,
      "longitude": -103.621133,
      "accepts_tph": true,
      "tph_max_mgkg": 5000,
      "accepts_chloride": true,
      "chloride_max_mgkg": 10000,
      "disposal_cost_cy": 25,
      "backfill_available": false,
      "backfill_cost_cy": 0
    }
  ],
  "clean_futures_facilities": [
    {
      "id": "CF001",
      "facility_name": "Clean Futures Facility 1",
      "region": "Delaware Basin",
      "latitude": 31.9195,
      "longitude": -103.6285,
      "processing_cost_cy": 25,
      "includes_backfill": true,
      "backfill_cost_cy": 0,
      "typical_turnaround_days": 30,
      "notes": "Treated soil returned to site"
    },
    {
      "id": "CF002",
      "facility_name": "Clean Futures Facility 2",
      "region": "Midland Basin",
      "latitude": 32.1022,
      "longitude": -102.4654,
      "processing_cost_cy": 25,
      "includes_backfill": true,
      "backfill_cost_cy": 0,
      "typical_turnaround_days": 30,
      "notes": "Treated soil returned to site"
    },
    {
      "id": "CF003",
      "facility_name": "Clean Futures Facility 3",
      "region": "Central Basin",
      "latitude": 31.3458,
      "longitude": -101.7301,
      "processing_cost_cy": 25,
      "includes_backfill": true,
      "backfill_cost_cy": 0,
      "typical_turnaround_days": 30,
      "notes": "Treated soil returned to site"
    },
    {
      "id": "CF004",
      "facility_name": "Clean Futures Facility 4",
      "region": "Eastern Basin",
      "latitude": 32.3109,
      "longitude": -101.8421,
      "processing_cost_cy": 25,
      "includes_backfill": true,
      "backfill_cost_cy": 0,
      "typical_turnaround_days": 30,
      "notes": "Treated soil returned to site"
    }
  ]
}
